City_ID,City,Country,Lat,Lng,Max Temp,Humidity,Cloudiness,Wind Speed,Current Description,Date
0,Yima,CN,34.7381,111.8839,295.0,61,0,3.36,clear sky,2022-09-14 01:09:00
1,Chara,RU,56.9064,118.2631,281.62,61,43,2.31,scattered clouds,2022-09-14 01:09:00
2,Embonas,GR,36.2269,27.8564,295.28,60,0,8.55,clear sky,2022-09-14 01:09:01
3,Cayenne,GF,4.9333,-52.3333,300.17,83,0,0.0,clear sky,2022-09-14 01:05:30
4,Atuona,PF,-9.8,-139.0333,297.9,69,0,5.58,clear sky,2022-09-14 01:09:02
5,Bengkulu,ID,-3.8004,102.2655,297.54,85,100,1.07,overcast clouds,2022-09-14 01:09:02
6,Vaini,TO,-21.2,-175.2,301.24,74,20,2.57,few clouds,2022-09-14 01:09:04
7,Cherskiy,RU,68.75,161.3,275.84,87,100,2.77,overcast clouds,2022-09-14 01:09:04
8,Palmer,US,42.1584,-72.3287,295.37,86,75,0.0,broken clouds,2022-09-14 01:09:05
9,Rio Grande,BR,-32.035,-52.0986,287.01,89,99,5.75,overcast clouds,2022-09-14 01:09:05
10,Rikitea,PF,-23.1203,-134.9692,295.63,71,100,3.47,light rain,2022-09-14 01:09:06
11,Ribeira Grande,PT,38.5167,-28.7,297.28,88,13,5.36,light rain,2022-09-14 01:09:06
12,Saint-Pierre,RE,-21.3393,55.4781,292.97,56,0,4.12,clear sky,2022-09-14 01:09:07
13,Northam,GB,51.0333,-4.2167,287.73,95,100,3.26,overcast clouds,2022-09-14 01:09:08
14,Yuli,NG,9.6989,10.2744,294.87,91,100,1.07,overcast clouds,2022-09-14 01:09:09
15,Albany,US,42.6001,-73.9662,290.4,89,60,2.06,broken clouds,2022-09-14 01:08:58
16,East London,ZA,-33.0153,27.9116,287.78,74,0,3.9,clear sky,2022-09-14 01:09:09
17,Busselton,AU,-33.65,115.3333,286.57,71,97,7.9,overcast clouds,2022-09-14 01:09:10
18,Richards Bay,ZA,-28.783,32.0377,290.66,87,100,2.2,overcast clouds,2022-09-14 01:09:10
19,Stephenville Crossing,CA,48.5,-58.4318,288.33,85,100,0.99,overcast clouds,2022-09-14 01:09:11
20,Mataura,NZ,-46.1927,168.8643,282.86,74,91,2.34,overcast clouds,2022-09-14 01:09:11
21,Arraial Do Cabo,BR,-22.9661,-42.0278,294.6,82,98,8.62,overcast clouds,2022-09-14 01:09:11
22,Magadan,RU,59.5667,150.8,284.56,51,100,2.32,overcast clouds,2022-09-14 01:09:12
23,Ginda,IN,30.6945,78.4932,290.63,88,98,0.43,overcast clouds,2022-09-14 01:09:13
24,Dingle,PH,10.9995,122.6711,302.77,74,10,4.54,clear sky,2022-09-14 01:09:14
25,Kashi,CN,39.4547,75.9797,292.74,36,44,1.97,scattered clouds,2022-09-14 01:09:14
26,Norman Wells,CA,65.282,-126.8329,288.02,45,100,2.5,overcast clouds,2022-09-14 01:09:15
27,Faanui,PF,-16.4833,-151.75,299.05,74,100,9.46,overcast clouds,2022-09-14 01:09:15
28,Jamestown,US,42.097,-79.2353,288.55,71,75,4.12,broken clouds,2022-09-14 01:09:16
29,Chuy,UY,-33.6971,-53.4616,284.23,95,6,3.6,clear sky,2022-09-14 01:09:16
30,Jingdezhen,CN,29.2947,117.2079,300.06,65,7,3.06,clear sky,2022-09-14 01:09:16
31,Tres Passos,BR,-27.4556,-53.9319,284.77,87,3,2.16,clear sky,2022-09-14 01:09:17
32,Meulaboh,ID,4.1363,96.1285,298.1,85,92,1.13,overcast clouds,2022-09-14 01:09:17
33,New Norfolk,AU,-42.7826,147.0587,285.21,56,5,0.89,clear sky,2022-09-14 01:09:18
34,Bandarbeyla,SO,9.4942,50.8122,298.72,79,100,12.25,overcast clouds,2022-09-14 01:09:18
35,Namibe,AO,-15.1961,12.1522,292.55,86,99,1.36,overcast clouds,2022-09-14 01:09:19
36,Punta Arenas,CL,-53.15,-70.9167,277.21,75,40,13.38,scattered clouds,2022-09-14 01:09:20
37,Ushuaia,AR,-54.8,-68.3,278.96,70,75,7.2,broken clouds,2022-09-14 01:09:20
38,Avarua,CK,-21.2078,-159.775,300.18,69,75,5.66,broken clouds,2022-09-14 01:09:21
39,Mirzapur,IN,25.15,82.5833,300.13,90,100,2.92,overcast clouds,2022-09-14 01:09:21
40,Moree,AU,-29.4667,149.85,291.81,53,100,3.9,overcast clouds,2022-09-14 01:09:21
41,Pisco,PE,-13.7,-76.2167,289.27,82,72,5.14,mist,2022-09-14 01:09:22
42,Darnah,LY,32.767,22.6367,297.33,61,0,6.07,clear sky,2022-09-14 01:09:23
43,Cape Town,ZA,-33.9258,18.4232,290.32,72,0,1.79,clear sky,2022-09-14 01:08:22
44,Anadyr,RU,64.75,177.4833,279.43,100,75,2.0,light intensity shower rain,2022-09-14 01:09:23
45,Minas,UY,-34.3759,-55.2377,281.15,96,7,2.21,clear sky,2022-09-14 01:07:51
46,Ondo,NG,7.1,4.8333,294.6,100,100,0.82,overcast clouds,2022-09-14 01:09:24
47,Westport,US,41.1415,-73.3579,298.2,65,20,6.69,few clouds,2022-09-14 01:09:25
48,Yellowknife,CA,62.456,-114.3525,285.14,59,100,1.64,overcast clouds,2022-09-14 01:09:25
49,Chiredzi,ZW,-21.05,31.6667,291.78,85,100,4.12,light rain,2022-09-14 01:09:26
50,Nanortalik,GL,60.1432,-45.2371,280.13,76,7,3.24,clear sky,2022-09-14 01:09:26
51,Mamallapuram,IN,12.6264,80.1722,301.18,79,94,6.43,overcast clouds,2022-09-14 01:09:27
52,Karratha,AU,-20.7377,116.8463,297.02,33,0,5.26,clear sky,2022-09-14 01:09:27
53,Kota Belud,MY,6.351,116.4305,301.57,73,7,1.79,clear sky,2022-09-14 01:09:28
54,Hobart,AU,-42.8794,147.3294,285.07,56,20,6.69,few clouds,2022-09-14 01:07:06
55,Mahebourg,MU,-20.4081,57.7,293.85,77,100,3.71,overcast clouds,2022-09-14 01:09:28
56,Coquimbo,CL,-29.9533,-71.3436,285.0,82,0,1.54,clear sky,2022-09-14 01:09:29
57,Colares,PT,38.7992,-9.4469,293.57,70,100,12.96,overcast clouds,2022-09-14 01:09:29
58,Nome,US,64.5011,-165.4064,286.02,82,75,4.63,broken clouds,2022-09-14 01:09:30
59,Cape Coast,GH,5.1053,-1.2466,296.68,92,87,3.68,overcast clouds,2022-09-14 01:09:30
60,Cidreira,BR,-30.1811,-50.2056,288.06,90,100,4.27,overcast clouds,2022-09-14 01:09:31
61,Komagane,JP,35.7296,137.9396,301.12,68,100,2.68,overcast clouds,2022-09-14 01:09:31
62,Villa Maria,AR,-32.4075,-63.2402,287.49,33,62,1.21,broken clouds,2022-09-14 01:09:32
63,Kapaa,US,22.0752,-159.319,302.33,67,20,5.66,few clouds,2022-09-14 01:09:32
64,Mar Del Plata,AR,-38.0023,-57.5575,283.2,91,100,4.02,overcast clouds,2022-09-14 01:09:32
65,Clyde River,CA,70.4692,-68.5914,275.58,98,100,7.38,light rain,2022-09-14 01:09:33
66,Dikson,RU,73.5069,80.5464,276.65,88,100,9.43,light rain,2022-09-14 01:09:33
67,Rocha,UY,-34.4833,-54.3333,282.48,97,5,2.42,clear sky,2022-09-14 01:09:34
68,Ponta Do Sol,PT,32.6667,-17.1,296.32,79,39,4.01,scattered clouds,2022-09-14 01:09:34
69,Mundwa,IN,27.0667,73.8167,299.03,78,4,3.24,clear sky,2022-09-14 01:09:35
70,Port Elizabeth,ZA,-33.918,25.5701,284.99,98,3,2.93,clear sky,2022-09-14 01:09:35
71,Tromso,NO,69.6496,18.957,279.16,75,20,7.2,few clouds,2022-09-14 01:09:36
72,Pudozh,RU,61.8099,36.5345,279.56,85,98,2.19,overcast clouds,2022-09-14 01:04:52
73,Georgetown,MY,5.4112,100.3354,300.87,82,40,4.12,scattered clouds,2022-09-14 01:04:58
74,Gat,IL,31.61,34.7642,297.82,100,21,2.16,few clouds,2022-09-14 01:09:36
75,Tasiilaq,GL,65.6145,-37.6368,275.24,86,100,1.51,overcast clouds,2022-09-14 01:09:37
76,Gazanjyk,TM,39.2446,55.5154,293.19,16,0,6.89,clear sky,2022-09-14 01:09:38
77,Lorengau,PG,-2.0226,147.2712,302.89,64,95,5.72,overcast clouds,2022-09-14 01:09:38
78,Cockburn Town,TC,21.4612,-71.1419,302.16,74,100,7.02,overcast clouds,2022-09-14 01:09:39
79,Kaitangata,NZ,-46.2817,169.8464,282.76,59,73,3.7,broken clouds,2022-09-14 01:09:39
80,Lavrentiya,RU,65.5833,-171.0,280.32,92,100,0.97,light rain,2022-09-14 01:09:39
81,Grindavik,IS,63.8424,-22.4338,279.41,87,0,2.06,clear sky,2022-09-14 01:09:40
82,Puerto Ayora,EC,-0.7393,-90.3518,291.79,95,82,1.79,broken clouds,2022-09-14 01:09:41
83,Tongliao,CN,43.6125,122.2653,291.18,47,89,2.81,overcast clouds,2022-09-14 01:09:41
84,Puerto Leguizamo,CO,-0.1934,-74.7819,298.56,72,79,1.23,broken clouds,2022-09-14 01:09:42
85,Taraclia,MD,45.9,28.6689,285.55,75,98,1.64,overcast clouds,2022-09-14 01:09:42
86,Qaanaaq,GL,77.484,-69.3632,274.42,72,92,2.09,overcast clouds,2022-09-14 01:09:43
87,Natal,BR,-5.795,-35.2094,296.51,100,75,1.54,broken clouds,2022-09-14 01:08:36
88,Vanimo,PG,-2.6741,141.3028,302.95,64,94,3.11,overcast clouds,2022-09-14 01:09:43
89,Fortuna,US,40.5982,-124.1573,294.78,67,16,1.79,few clouds,2022-09-14 01:08:02
90,Rongcheng,CN,30.634,117.8517,294.92,97,100,1.86,overcast clouds,2022-09-14 01:09:44
91,Linxia,CN,35.6003,103.2064,289.1,75,92,1.24,overcast clouds,2022-09-14 01:09:45
92,Port Alfred,ZA,-33.5906,26.891,284.92,91,0,4.5,clear sky,2022-09-14 01:09:45
93,Carnarvon,AU,-24.8667,113.6333,291.83,53,54,7.56,broken clouds,2022-09-14 01:09:45
94,Rawson,AR,-43.3002,-65.1023,287.94,44,15,7.25,few clouds,2022-09-14 01:09:46
95,Bethel,US,41.3712,-73.414,296.75,77,0,3.6,clear sky,2022-09-14 01:09:46
96,Severo-Kurilsk,RU,50.6789,156.125,283.78,92,100,8.33,overcast clouds,2022-09-14 01:08:59
97,Bathsheba,BB,13.2167,-59.5167,301.49,74,40,7.2,scattered clouds,2022-09-14 01:09:47
98,Bluff,NZ,-46.6,168.3333,283.04,68,78,5.33,broken clouds,2022-09-14 01:09:48
99,Yarmouth,US,41.7057,-70.2286,297.03,95,100,4.12,overcast clouds,2022-09-14 01:09:48
100,Hauterive,FR,46.0901,3.4459,294.57,95,99,1.89,overcast clouds,2022-09-14 01:09:49
101,Kutulik,RU,53.3508,102.7839,281.23,59,100,2.28,overcast clouds,2022-09-14 01:09:49
102,Victor Harbor,AU,-35.5667,138.6167,289.26,67,100,1.34,light rain,2022-09-14 01:09:49
103,Kodiak,US,57.79,-152.4072,284.88,82,100,2.57,light rain,2022-09-14 01:09:50
104,Kapit,MY,2.0167,112.9333,296.08,99,100,0.36,overcast clouds,2022-09-14 01:09:50
105,Fare,PF,-16.7,-151.0167,299.0,73,100,9.51,overcast clouds,2022-09-14 01:09:51
106,Bekovo,RU,52.4663,43.712,284.91,85,100,5.74,overcast clouds,2022-09-14 01:09:51
107,San Cristobal,VE,7.7669,-72.225,297.25,97,100,0.67,overcast clouds,2022-09-14 01:09:52
108,Havre-Saint-Pierre,CA,50.2334,-63.5986,288.67,88,100,2.72,overcast clouds,2022-09-14 01:08:05
109,Adrar,MR,20.5022,-10.0711,309.8,20,100,3.19,overcast clouds,2022-09-14 01:09:53
110,Kavaratti,IN,10.5669,72.642,300.09,80,40,5.19,scattered clouds,2022-09-14 01:09:53
111,Muravlenko,RU,63.7898,74.523,280.58,85,100,4.67,overcast clouds,2022-09-14 01:09:53
112,Japura,ID,-0.3167,102.35,295.64,97,100,0.92,overcast clouds,2022-09-14 01:09:54
113,Ariano Irpino,IT,41.1489,15.0833,290.35,68,57,1.5,broken clouds,2022-09-14 01:09:54
114,Hermanus,ZA,-34.4187,19.2345,285.54,83,0,5.22,clear sky,2022-09-14 01:09:55
115,Nikolskoye,RU,59.7035,30.7861,285.86,74,100,3.03,overcast clouds,2022-09-14 01:09:55
116,Harrisburg,US,40.2737,-76.8844,294.44,69,75,3.6,broken clouds,2022-09-14 01:06:12
117,Guerrero Negro,MX,27.9769,-114.0611,297.53,69,0,6.0,clear sky,2022-09-14 01:09:56
118,Yatou,CN,37.15,122.3833,292.89,97,100,9.48,heavy intensity rain,2022-09-14 01:09:57
119,Morros,BR,-9.4467,-46.3003,300.36,27,62,1.03,broken clouds,2022-09-14 01:09:57
120,Bestobe,KZ,52.4994,73.0975,280.67,58,8,1.01,clear sky,2022-09-14 01:09:57
121,San Ramon,US,37.7799,-121.978,295.73,67,0,7.72,clear sky,2022-09-14 01:06:30
122,Chokurdakh,RU,70.6333,147.9167,279.64,53,84,4.61,broken clouds,2022-09-14 01:09:58
123,Husavik,IS,66.0449,-17.3389,279.6,91,100,6.15,overcast clouds,2022-09-14 01:09:59
124,Lompoc,US,34.6391,-120.4579,299.58,70,0,7.2,clear sky,2022-09-14 01:09:59
125,Belmonte,BR,-15.8631,-38.8828,294.68,83,0,3.42,clear sky,2022-09-14 01:10:00
126,Coihaique,CL,-45.5752,-72.0662,281.12,76,100,3.09,light rain,2022-09-14 01:05:41
127,Iqaluit,CA,63.7506,-68.5145,279.65,75,100,4.02,overcast clouds,2022-09-14 01:06:19
128,Barrow,US,71.2906,-156.7887,275.16,93,100,11.32,overcast clouds,2022-09-14 01:10:01
129,Datong,CN,40.0936,113.2914,291.93,59,0,1.99,clear sky,2022-09-14 01:10:01
130,Abilene,US,32.4487,-99.7331,304.42,33,0,4.12,clear sky,2022-09-14 01:10:02
131,Lebu,CL,-37.6167,-73.65,282.41,84,86,1.05,overcast clouds,2022-09-14 01:10:02
132,Llodio,ES,43.1432,-2.962,297.53,54,0,2.57,clear sky,2022-09-14 01:10:03
133,Shimoda,JP,34.6667,138.95,299.87,75,73,5.96,broken clouds,2022-09-14 01:10:04
134,Khromtau,KZ,50.2503,58.4347,284.64,42,13,2.61,few clouds,2022-09-14 01:10:04
135,Kyren,RU,51.6828,102.1408,279.86,97,100,0.98,moderate rain,2022-09-14 01:10:05
136,Upernavik,GL,72.7868,-56.1549,278.97,85,100,2.43,overcast clouds,2022-09-14 01:10:04
137,Sao Paulo De Olivenca,BR,-3.3783,-68.8725,298.13,75,11,0.1,few clouds,2022-09-14 01:10:06
138,Brae,GB,60.3964,-1.353,284.9,81,100,5.79,light rain,2022-09-14 01:10:06
139,Khatanga,RU,71.9667,102.5,274.17,99,100,3.65,light snow,2022-09-14 01:10:07
140,Am Timan,TD,11.0297,20.2827,295.18,93,99,2.0,overcast clouds,2022-09-14 01:10:07
141,Pevek,RU,69.7008,170.3133,274.25,99,100,2.5,overcast clouds,2022-09-14 01:10:08
142,Port Hardy,CA,50.6996,-127.4199,287.66,81,19,3.37,few clouds,2022-09-14 01:10:09
143,Casablanca,MA,33.5928,-7.6192,296.11,78,9,1.79,clear sky,2022-09-14 01:10:09
144,Numaligarh,IN,26.6333,93.75,298.06,90,100,0.67,overcast clouds,2022-09-14 01:10:10
145,Soe,ID,-9.8607,124.284,300.53,36,14,3.73,few clouds,2022-09-14 01:10:11
146,Paraiso,CR,9.8383,-83.8656,293.08,100,100,0.87,overcast clouds,2022-09-14 01:10:12
147,Komsomolskiy,UZ,40.4272,71.7189,287.55,67,0,2.06,clear sky,2022-09-14 01:10:13
148,Iralaya,HN,15.0,-83.2333,300.61,78,12,3.24,few clouds,2022-09-14 01:10:13
149,Veraval,IN,20.9,70.3667,299.48,87,100,1.92,heavy intensity rain,2022-09-14 01:10:14
150,Ahipara,NZ,-35.1667,173.1667,287.86,65,87,4.11,overcast clouds,2022-09-14 01:10:14
151,Cabo San Lucas,MX,22.8909,-109.9124,303.49,65,0,4.12,clear sky,2022-09-14 01:07:29
152,Bredasdorp,ZA,-34.5322,20.0403,282.77,93,0,1.96,clear sky,2022-09-14 01:10:15
153,Tiksi,RU,71.6872,128.8694,278.69,75,97,2.36,overcast clouds,2022-09-14 01:10:16
154,Lima,PE,-12.0432,-77.0282,288.65,83,100,6.69,overcast clouds,2022-09-14 01:09:48
155,Vietri Sul Mare,IT,40.6687,14.7253,295.97,100,27,0.85,scattered clouds,2022-09-14 01:10:17
156,Troitskoye,RU,52.9821,84.6757,277.48,66,7,2.69,clear sky,2022-09-14 01:10:18
157,Khed Brahma,IN,24.0333,73.05,298.56,90,100,1.38,overcast clouds,2022-09-14 01:10:18
158,Airai,TL,-8.9266,125.4092,296.52,36,78,2.76,broken clouds,2022-09-14 01:10:19
159,Port Blair,IN,11.6667,92.75,300.46,79,100,4.74,overcast clouds,2022-09-14 01:10:19
160,Axim,GH,4.8699,-2.2405,296.37,93,83,2.67,broken clouds,2022-09-14 01:10:20
161,Zastron,ZA,-30.3023,27.084,282.23,28,0,2.24,clear sky,2022-09-14 01:10:20
162,College,US,64.8569,-147.8028,291.33,51,75,0.0,broken clouds,2022-09-14 01:10:21
163,Tekeli,KZ,44.83,78.8239,284.1,41,68,2.21,broken clouds,2022-09-14 01:10:21
164,Ciudad Bolivar,VE,8.1222,-63.5497,300.68,67,55,3.75,broken clouds,2022-09-14 01:10:22
165,Tautira,PF,-17.7333,-149.15,298.38,73,100,8.72,overcast clouds,2022-09-14 01:10:22
166,Asau,RO,46.4333,26.4,282.66,91,91,2.58,overcast clouds,2022-09-14 01:10:23
167,Soyaux,FR,45.65,0.2,295.19,75,0,0.0,clear sky,2022-09-14 01:10:24
168,Mehamn,NO,71.0357,27.8492,278.1,70,75,1.03,broken clouds,2022-09-14 01:10:24
169,Faya,SA,18.3851,42.4509,292.44,48,100,0.37,overcast clouds,2022-09-14 01:10:25
170,Geraldton,AU,-28.7667,114.6,290.38,67,100,2.57,overcast clouds,2022-09-14 01:10:25
171,Thompson,CA,55.7435,-97.8558,280.18,55,7,1.47,clear sky,2022-09-14 01:10:26
172,Berlevag,NO,70.8578,29.0864,278.12,70,75,6.17,broken clouds,2022-09-14 01:10:26
173,Tuktoyaktuk,CA,69.4541,-133.0374,277.3,66,100,7.11,overcast clouds,2022-09-14 01:10:27
174,Samarai,PG,-10.6167,150.6667,300.26,81,25,5.22,scattered clouds,2022-09-14 01:10:27
175,Bayan,CN,46.0833,127.4,290.46,63,0,3.79,clear sky,2022-09-14 01:10:28
176,Longyearbyen,SJ,78.2186,15.6401,275.06,75,75,1.03,broken clouds,2022-09-14 01:10:28
177,Vostok,RU,46.4856,135.8833,287.68,48,0,1.24,clear sky,2022-09-14 01:10:30
178,Saskylakh,RU,71.9167,114.0833,274.62,82,91,4.36,overcast clouds,2022-09-14 01:10:30
179,Talnakh,RU,69.4865,88.3972,273.87,92,98,3.1,overcast clouds,2022-09-14 01:10:31
180,Scarborough,GB,54.2797,-0.4044,285.32,88,0,2.71,clear sky,2022-09-14 01:08:09
181,Cururupu,BR,-1.8283,-44.8683,297.19,87,6,2.03,clear sky,2022-09-14 01:10:32
182,Lodja,CD,-3.4833,23.4333,293.86,97,98,0.79,light rain,2022-09-14 01:10:32
183,Okoneshnikovo,RU,54.8377,75.0834,278.43,64,33,1.33,scattered clouds,2022-09-14 01:10:33
184,Tura,IN,25.5198,90.2201,295.46,95,100,1.83,overcast clouds,2022-09-14 01:10:33
185,Castro,BR,-24.7911,-50.0119,288.84,98,100,0.99,overcast clouds,2022-09-14 01:10:34
186,Katsuura,JP,35.1333,140.3,302.16,75,16,5.95,few clouds,2022-09-14 01:06:08
187,Bandar-E Lengeh,IR,26.5579,54.8807,304.48,65,0,3.58,clear sky,2022-09-14 01:07:24
188,Orodara,BF,10.9492,-4.9342,293.66,95,16,0.96,few clouds,2022-09-14 01:10:35
189,La Palma,US,33.8464,-118.0467,302.54,63,20,4.12,few clouds,2022-09-14 01:10:35
190,Torbay,CA,47.6666,-52.7314,287.19,95,100,3.13,overcast clouds,2022-09-14 01:10:36
191,Zhangjiakou,CN,40.81,114.8794,293.54,65,0,0.92,clear sky,2022-09-14 01:10:36
192,Plastun,RU,44.7561,136.2939,290.34,62,14,1.66,few clouds,2022-09-14 01:10:37
193,Boguchany,RU,58.3814,97.4531,278.6,76,43,0.88,scattered clouds,2022-09-14 01:10:37
194,Ola,RU,59.5833,151.2833,284.9,50,100,2.32,overcast clouds,2022-09-14 01:10:38
195,Te Anau,NZ,-45.4167,167.7167,279.97,78,33,0.48,scattered clouds,2022-09-14 01:10:38
196,Itaituba,BR,-4.2761,-55.9836,297.66,75,47,1.09,scattered clouds,2022-09-14 01:10:39
197,Cabinda,AO,-5.55,12.2,295.76,86,79,1.91,broken clouds,2022-09-14 01:10:39
198,Pokhara,NP,28.2333,83.9833,294.49,93,76,0.39,broken clouds,2022-09-14 01:10:40
199,Springbok,ZA,-29.6643,17.8865,287.17,13,0,5.02,clear sky,2022-09-14 01:10:40
200,Mus,TR,39.0,41.75,288.21,51,53,1.31,broken clouds,2022-09-14 01:07:25
201,Saint-Philippe,RE,-21.3585,55.7679,291.92,73,99,0.19,overcast clouds,2022-09-14 01:10:41
202,El Prat De Llobregat,ES,41.3278,2.0947,300.43,65,20,4.12,few clouds,2022-09-14 01:10:03
203,Saint George,US,37.1041,-113.5841,298.39,60,20,2.57,few clouds,2022-09-14 01:10:41
204,Slyudyanka,RU,51.6594,103.7061,280.62,95,100,0.71,overcast clouds,2022-09-14 01:10:42
205,Noumea,NC,-22.2763,166.4572,298.71,99,98,3.84,overcast clouds,2022-09-14 01:10:42
206,Krasnoye-Na-Volge,RU,57.5125,41.2419,282.15,78,100,5.01,overcast clouds,2022-09-14 01:10:43
207,Altay,CN,47.8667,88.1167,284.85,32,100,1.64,overcast clouds,2022-09-14 01:10:43
208,Leningradskiy,RU,69.3833,178.4167,275.22,99,100,2.5,light rain,2022-09-14 01:10:44
209,Lagoa,PT,39.05,-27.9833,296.52,88,47,5.99,light rain,2022-09-14 01:10:44
210,Ostrovnoy,RU,68.0531,39.5131,281.78,85,100,8.43,overcast clouds,2022-09-14 01:10:45
211,Muroto,JP,33.2833,134.15,300.89,80,100,7.3,overcast clouds,2022-09-14 01:10:45
212,Pacific Grove,US,36.6177,-121.9166,297.53,73,0,3.09,clear sky,2022-09-14 01:08:30
213,Nyurba,RU,63.2842,118.3319,278.16,82,97,4.23,overcast clouds,2022-09-14 01:10:46
214,Abha,SA,18.2164,42.5053,292.29,40,0,2.06,clear sky,2022-09-14 01:10:46
215,Bonthe,SL,7.5264,-12.505,297.85,86,100,3.1,overcast clouds,2022-09-14 01:10:47
216,Xuddur,SO,4.1213,43.8894,294.46,78,100,7.62,overcast clouds,2022-09-14 01:10:47
217,Nautla,MX,20.2167,-96.7833,299.71,74,5,2.96,clear sky,2022-09-14 01:10:48
218,Prince Rupert,CA,54.3161,-130.3201,287.78,73,7,1.67,clear sky,2022-09-14 01:08:54
219,Ballina,AU,-28.8667,153.5667,293.71,68,34,5.06,scattered clouds,2022-09-14 01:10:48
220,Luderitz,NA,-26.6481,15.1594,294.41,29,1,2.61,clear sky,2022-09-14 01:10:49
221,Hasaki,JP,35.7333,140.8333,302.2,82,85,5.74,overcast clouds,2022-09-14 01:10:49
222,Forio,IT,40.7342,13.8646,295.66,60,7,2.79,clear sky,2022-09-14 01:10:50
223,Craig,US,40.5153,-107.5464,291.12,52,100,3.6,overcast clouds,2022-09-14 01:07:55
224,Bhinmal,IN,25.0,72.25,301.36,72,100,2.69,overcast clouds,2022-09-14 01:10:50
225,Esperance,AU,-33.8667,121.9,285.06,68,91,12.66,light rain,2022-09-14 01:10:51
226,Buraydah,SA,26.326,43.975,302.68,13,0,2.71,clear sky,2022-09-14 01:08:55
227,Lepe,ES,37.2548,-7.2043,293.77,90,0,3.81,clear sky,2022-09-14 01:10:52
228,West Lafayette,US,40.4259,-86.9081,293.27,89,40,0.0,scattered clouds,2022-09-14 01:06:07
229,Pangnirtung,CA,66.1451,-65.7125,278.84,98,100,3.03,light rain,2022-09-14 01:10:52
230,Linares,CL,-35.85,-71.6,282.83,88,0,0.82,clear sky,2022-09-14 01:10:53
231,Mattru,SL,7.6244,-11.8332,296.06,96,100,1.04,light rain,2022-09-14 01:10:53
232,Moa,CU,20.6569,-74.9403,299.6,84,7,2.78,clear sky,2022-09-14 01:10:54
233,Fairbanks,US,64.8378,-147.7164,291.34,52,75,0.0,broken clouds,2022-09-14 01:07:29
234,Mount Gambier,AU,-37.8333,140.7667,287.35,56,100,7.21,overcast clouds,2022-09-14 01:10:54
235,Schertz,US,29.5522,-98.2697,303.07,64,0,8.23,clear sky,2022-09-14 01:10:55
236,Mocajuba,BR,-2.5842,-49.5072,296.9,89,2,1.91,clear sky,2022-09-14 01:10:55
237,Hokitika,NZ,-42.7167,170.9667,285.47,32,0,0.69,clear sky,2022-09-14 01:10:56
238,Bayangol,RU,50.6977,103.4656,279.99,81,100,1.46,overcast clouds,2022-09-14 01:10:56
239,Tamiahua,MX,21.2667,-97.45,299.3,78,91,3.15,overcast clouds,2022-09-14 01:10:56
240,Butaritari,KI,3.0707,172.7902,300.7,71,6,3.85,clear sky,2022-09-14 01:10:57
241,Hilo,US,19.7297,-155.09,302.19,77,40,4.63,scattered clouds,2022-09-14 01:10:57
242,Ambilobe,MG,-13.2,49.05,293.08,81,86,1.65,overcast clouds,2022-09-14 01:10:58
243,Kruisfontein,ZA,-34.0033,24.7314,283.57,87,0,2.44,clear sky,2022-09-14 01:10:58
244,Nouakchott,MR,18.0858,-15.9785,301.11,80,22,5.64,few clouds,2022-09-14 01:10:59
245,Araouane,ML,18.9048,-3.5265,309.75,16,31,3.5,scattered clouds,2022-09-14 01:10:59
246,Ankpa,NG,7.3706,7.6253,294.31,97,99,0.64,overcast clouds,2022-09-14 01:11:00
247,Saldanha,ZA,-33.0117,17.9442,286.18,61,0,2.96,clear sky,2022-09-14 01:11:00
248,Urucara,BR,-2.5364,-57.76,298.18,72,27,0.74,scattered clouds,2022-09-14 01:11:01
249,Chifeng,CN,42.2683,118.9636,293.36,54,0,0.7,clear sky,2022-09-14 01:11:02
250,Singarayakonda,IN,15.25,80.0333,300.97,67,85,3.62,overcast clouds,2022-09-14 01:11:03
251,Viedma,AR,-40.8135,-62.9967,280.41,88,0,4.62,clear sky,2022-09-14 01:11:04
252,Jacareacanga,BR,-6.2222,-57.7528,298.41,64,6,1.2,clear sky,2022-09-14 01:11:04
253,Tantoyuca,MX,21.35,-98.2333,297.47,85,26,3.35,scattered clouds,2022-09-14 01:11:05
254,Ponta Delgada,PT,37.7333,-25.6667,296.55,94,40,3.09,scattered clouds,2022-09-14 01:11:06
255,Puerto Carreno,CO,6.189,-67.4859,299.45,82,100,1.64,heavy intensity rain,2022-09-14 01:11:06
256,Udachnyy,RU,66.4167,112.4,277.11,61,40,6.68,scattered clouds,2022-09-14 01:11:08
257,Sistranda,NO,63.7256,8.834,284.13,86,100,11.16,light rain,2022-09-14 01:11:08
258,Guadalupe Y Calvo,MX,26.1,-106.9667,286.87,87,100,0.32,overcast clouds,2022-09-14 01:11:09
259,Batesville,US,35.7698,-91.641,297.01,63,0,0.0,clear sky,2022-09-14 01:11:09
260,Sibu,MY,2.3,111.8167,295.54,98,100,1.53,overcast clouds,2022-09-14 01:11:10
261,Kaeo,NZ,-35.1,173.7833,291.11,72,100,1.43,overcast clouds,2022-09-14 01:11:10
262,Sao Filipe,CV,14.8961,-24.4956,299.31,83,77,2.63,light rain,2022-09-14 01:11:11
263,Ruwi,OM,23.5996,58.5507,301.98,66,9,1.33,clear sky,2022-09-14 01:11:11
264,Carbondale,US,37.7273,-89.2168,292.62,81,0,0.0,clear sky,2022-09-14 01:11:12
265,Castrillon,ES,43.3979,-6.7922,289.26,92,93,2.12,overcast clouds,2022-09-14 01:11:12
266,Manta,EC,-0.95,-80.7333,293.03,88,100,4.63,overcast clouds,2022-09-14 01:11:13
267,Teahupoo,PF,-17.8333,-149.2667,298.13,74,100,8.9,overcast clouds,2022-09-14 01:11:13
268,Graaff-Reinet,ZA,-32.2522,24.5308,284.51,57,0,1.12,clear sky,2022-09-14 01:11:14
269,Calabar,NG,4.9517,8.322,295.77,98,98,0.26,light rain,2022-09-14 01:11:15
270,Salinopolis,BR,-0.6136,-47.3561,298.85,86,12,4.39,few clouds,2022-09-14 01:11:15
271,Champerico,GT,14.3,-91.9167,299.71,83,100,3.04,overcast clouds,2022-09-14 01:11:16
272,Marsabit,KE,2.3284,37.9899,289.32,72,100,6.96,overcast clouds,2022-09-14 01:11:16
273,Pangai,TO,-19.8,-174.35,298.26,80,21,5.95,few clouds,2022-09-14 01:11:17
274,Yulara,AU,-25.2406,130.9889,298.57,30,18,6.83,few clouds,2022-09-14 01:11:17
275,Bima,ID,-8.4667,118.7167,303.34,59,33,2.95,scattered clouds,2022-09-14 01:10:42
276,Buala,SB,-8.145,159.5921,303.12,65,100,2.79,light rain,2022-09-14 01:11:18
277,Dunedin,NZ,-45.8742,170.5036,282.48,66,54,3.13,broken clouds,2022-09-14 01:11:19
278,Alofi,NU,-19.0595,-169.9187,302.09,58,75,5.66,broken clouds,2022-09-14 01:11:19
279,Casma,CL,-41.0082,-73.1244,284.93,79,100,1.66,overcast clouds,2022-09-14 01:11:20
280,Waipawa,NZ,-41.4122,175.5153,278.67,87,100,5.58,overcast clouds,2022-09-14 01:11:20
281,Fort Nelson,CA,58.8053,-122.7002,292.67,37,0,0.58,clear sky,2022-09-14 01:11:21
282,Dukat,RU,62.55,155.55,273.73,78,100,1.64,overcast clouds,2022-09-14 01:11:21
283,Chapais,CA,49.7834,-74.8492,288.03,97,100,1.61,overcast clouds,2022-09-14 01:11:22
284,Riyadh,SA,24.6877,46.7219,301.23,15,6,3.07,clear sky,2022-09-14 01:07:06
285,Tilichiki,RU,60.4667,166.1,279.65,79,100,1.36,overcast clouds,2022-09-14 01:11:22
286,Pacocha,PE,-17.5833,-71.3333,288.08,81,48,2.36,scattered clouds,2022-09-14 01:11:23
287,San Jeronimo,PE,-11.9472,-75.2829,286.29,66,100,0.61,light rain,2022-09-14 01:11:23
288,Manono,CD,-7.3,27.4167,294.45,84,99,1.31,light rain,2022-09-14 01:11:24
289,Takanabe,JP,32.1333,131.5,299.63,91,33,5.29,scattered clouds,2022-09-14 01:11:25
290,Hithadhoo,MV,-0.6,73.0833,300.45,70,0,2.37,clear sky,2022-09-14 01:11:25
291,Grand Gaube,MU,-20.0064,57.6608,293.92,75,92,1.34,overcast clouds,2022-09-14 01:11:26
292,Roma,US,43.2128,-75.4557,289.55,96,25,0.45,scattered clouds,2022-09-14 01:10:03
293,Hamadan,IR,34.7992,48.5146,292.8,23,0,3.11,clear sky,2022-09-14 01:11:26
294,Abnub,EG,27.2696,31.1511,299.16,42,0,3.45,clear sky,2022-09-14 01:11:27
295,Manadhoo,MV,5.7667,73.3833,300.02,75,73,1.51,broken clouds,2022-09-14 01:11:27
296,Tyukhtet,RU,56.5389,89.3011,276.66,75,14,1.12,few clouds,2022-09-14 01:11:28
297,Bayshore Gardens,US,27.4253,-82.5904,302.03,64,0,0.0,clear sky,2022-09-14 01:11:28
298,Vao,NC,-22.6667,167.4833,295.55,71,63,4.92,light rain,2022-09-14 01:11:29
299,Mormugao,IN,15.4,73.8,299.13,86,100,6.62,overcast clouds,2022-09-14 01:11:29
300,Kharp,RU,66.8014,65.8081,279.36,88,99,2.99,overcast clouds,2022-09-14 01:11:30
301,Kutum,SD,14.2,24.6667,297.78,58,100,2.42,overcast clouds,2022-09-14 01:11:31
302,Parana,AR,-31.732,-60.5238,289.01,68,7,2.96,clear sky,2022-09-14 01:10:57
303,Bethanien,NA,-26.502,17.1583,288.04,10,3,1.99,clear sky,2022-09-14 01:11:32
304,Male,MV,4.1748,73.5089,299.77,76,27,0.82,scattered clouds,2022-09-14 01:11:32
305,Santarem,BR,-2.4431,-54.7083,297.22,100,0,0.51,clear sky,2022-09-14 01:11:33
306,Terrace Bay,CA,48.7834,-87.1,284.21,70,3,5.36,clear sky,2022-09-14 01:11:33
307,Balaguer,ES,41.7912,0.8109,293.24,93,100,1.27,light rain,2022-09-14 01:11:34
308,Preobrazheniye,RU,42.9019,133.9064,290.06,71,100,3.58,overcast clouds,2022-09-14 01:11:34
309,Tezu,IN,27.9167,96.1667,297.25,94,100,0.57,overcast clouds,2022-09-14 01:11:35
310,Camacha,PT,33.0833,-16.3333,294.83,78,20,4.63,few clouds,2022-09-14 01:11:35
311,Vila,PT,42.0304,-8.1588,286.64,94,100,2.14,overcast clouds,2022-09-14 01:11:36
312,Katangli,RU,51.7102,143.2326,285.7,48,65,3.58,broken clouds,2022-09-14 01:11:36
313,Banjar,ID,-8.19,114.9675,301.32,62,7,2.5,clear sky,2022-09-14 01:11:37
314,Nusaybin,TR,37.0778,41.2178,296.68,52,0,3.04,clear sky,2022-09-14 01:11:37
315,Maniitsoq,GL,65.4167,-52.9,280.0,84,100,6.79,light rain,2022-09-14 01:11:38
316,Aklavik,CA,68.2191,-135.0107,279.32,89,100,4.18,light rain,2022-09-14 01:11:38
317,Margate,GB,51.3813,1.3862,289.21,94,100,1.34,light rain,2022-09-14 01:11:39
318,Yerbogachen,RU,61.2767,108.0108,278.65,78,22,3.94,few clouds,2022-09-14 01:11:39
319,Bristol,US,41.8334,-71.1662,296.42,85,9,2.24,clear sky,2022-09-14 01:07:33
320,Jinchang,CN,38.4953,102.1739,293.02,53,8,3.97,clear sky,2022-09-14 01:11:40
321,Crailsheim,DE,49.1344,10.0719,293.64,69,100,1.57,light rain,2022-09-14 01:07:36
322,Birjand,IR,32.8663,59.2211,290.77,18,0,1.61,clear sky,2022-09-14 01:11:41
323,Port Hedland,AU,-20.3167,118.5667,299.18,50,0,5.66,clear sky,2022-09-14 01:11:41
324,Vrangel,RU,42.7297,133.0839,290.68,66,100,5.14,overcast clouds,2022-09-14 01:11:42
325,Kuito,AO,-12.3833,16.9333,289.46,38,66,1.05,broken clouds,2022-09-14 01:11:42
326,Isangel,VU,-19.55,169.2667,300.56,65,99,2.82,overcast clouds,2022-09-14 01:07:48
327,Beachwood,US,41.4645,-81.5087,291.51,80,75,4.63,broken clouds,2022-09-14 01:11:43
328,Hami,CN,42.8,93.45,292.7,20,0,1.85,clear sky,2022-09-14 01:11:43
329,Mezen,RU,65.8522,44.24,280.1,94,98,3.1,overcast clouds,2022-09-14 01:11:44
330,Olavarria,AR,-36.8927,-60.3225,282.83,71,0,3.94,clear sky,2022-09-14 01:11:44
331,Qasigiannguit,GL,68.8193,-51.1922,282.29,76,100,3.0,overcast clouds,2022-09-14 01:11:45
332,Victoria,HK,22.2855,114.1577,306.62,46,37,4.92,scattered clouds,2022-09-14 01:09:12
333,Kungurtug,RU,50.5994,97.5228,279.95,89,100,1.05,overcast clouds,2022-09-14 01:11:45
334,Ginir,ET,7.1333,40.7,288.53,79,100,3.61,overcast clouds,2022-09-14 01:11:46
335,Dandong,CN,40.1292,124.3947,293.7,84,100,0.86,moderate rain,2022-09-14 01:11:46
336,Goma,CD,-1.6792,29.2228,290.61,87,100,1.39,light rain,2022-09-14 01:11:47
337,Maralal,KE,1.0968,36.698,288.38,82,100,0.84,light rain,2022-09-14 01:11:47
338,Yaan,NG,7.3833,8.5667,294.6,92,100,0.74,overcast clouds,2022-09-14 01:11:48
339,Barahona,DO,18.2085,-71.1008,300.1,79,100,1.62,overcast clouds,2022-09-14 01:11:48
340,Klaksvik,FO,62.2266,-6.589,282.66,84,90,5.09,overcast clouds,2022-09-14 01:11:49
341,Narasannapeta,IN,18.4167,84.05,299.53,86,66,3.5,broken clouds,2022-09-14 01:11:49
342,Icatu,BR,-2.7758,-44.0658,300.39,84,1,3.13,clear sky,2022-09-14 01:11:16
343,Laguna,US,38.421,-121.4238,300.07,48,0,7.2,clear sky,2022-09-14 01:11:50
344,Hovd,MN,48.0056,91.6419,283.8,38,7,0.11,clear sky,2022-09-14 01:11:50
345,Port Macquarie,AU,-31.4333,152.9167,289.76,61,27,2.81,scattered clouds,2022-09-14 01:11:50
346,Praia Da Vitoria,PT,38.7333,-27.0667,296.9,96,9,2.25,clear sky,2022-09-14 01:11:51
347,Nyrob,RU,60.733,56.7202,278.48,96,95,1.75,overcast clouds,2022-09-14 01:11:51
348,High Prairie,CA,55.4334,-116.4858,291.36,42,0,2.33,clear sky,2022-09-14 01:11:52
349,Malanje,AO,-9.5402,16.341,291.46,83,68,2.63,broken clouds,2022-09-14 01:11:52
350,Hambantota,LK,6.1241,81.1185,298.87,85,59,5.39,broken clouds,2022-09-14 01:11:53
351,Tignere,CM,7.3667,12.65,290.48,90,100,0.32,overcast clouds,2022-09-14 01:11:54
352,Santa Luzia,BR,-19.7697,-43.8514,296.65,44,67,2.05,broken clouds,2022-09-14 01:11:55
353,Rio Gallegos,AR,-51.6226,-69.2181,278.18,60,0,7.2,clear sky,2022-09-14 01:11:31
354,Naze,JP,28.3667,129.4833,300.23,84,33,8.57,scattered clouds,2022-09-14 01:11:55
355,Amapa,BR,1.0,-52.0,298.45,76,97,2.06,overcast clouds,2022-09-14 01:11:56
356,Broken Hill,AU,-31.95,141.4333,292.66,40,100,12.3,overcast clouds,2022-09-14 01:11:56
357,Nouadhibou,MR,20.931,-17.0347,296.43,83,14,7.95,few clouds,2022-09-14 01:11:57
358,Vestmannaeyjar,IS,63.4427,-20.2734,282.2,74,0,8.55,clear sky,2022-09-14 01:11:57
359,Muli,MV,2.9167,73.5667,300.14,73,12,1.31,few clouds,2022-09-14 01:11:57
360,Lysyye Gory,RU,51.5506,44.8414,286.52,81,100,5.93,overcast clouds,2022-09-14 01:11:58
361,Kirakira,SB,-10.4544,161.9205,302.06,72,91,3.32,overcast clouds,2022-09-14 01:11:58
362,Sitka,US,57.0531,-135.33,288.26,77,100,2.68,overcast clouds,2022-09-14 01:11:59
363,Zaraza,VE,9.3503,-65.3245,298.59,78,100,2.0,overcast clouds,2022-09-14 01:11:59
364,Pinawa,CA,50.1489,-95.8811,284.01,56,36,2.38,scattered clouds,2022-09-14 01:12:00
365,Pontian Kecil,MY,1.4801,103.3899,299.21,82,100,4.15,overcast clouds,2022-09-14 01:12:00
366,Biloela,AU,-24.4167,150.5,295.99,36,0,1.43,clear sky,2022-09-14 01:12:01
367,Timizart,DZ,36.8,4.2667,302.7,33,98,4.36,overcast clouds,2022-09-14 01:12:01
368,Saint-Francois,FR,46.4154,3.9054,290.84,94,0,2.57,clear sky,2022-09-14 01:12:01
369,Caravelas,BR,-17.7125,-39.2481,295.66,80,5,4.36,clear sky,2022-09-14 01:12:02
370,Medea,DZ,36.2642,2.7539,300.29,23,100,2.08,overcast clouds,2022-09-14 01:12:03
371,Pak Phanang,TH,8.3511,100.202,299.65,78,57,3.78,broken clouds,2022-09-14 01:09:12
372,Makubetsu,JP,45.3714,141.8211,288.36,55,1,6.31,clear sky,2022-09-14 01:12:03
373,Mutsu,JP,41.2894,141.2169,292.8,59,90,4.69,overcast clouds,2022-09-14 01:12:04
374,Bousso,TD,10.4795,16.7117,294.12,86,100,2.22,overcast clouds,2022-09-14 01:12:04
375,Asekeyevo,RU,53.5742,52.7972,285.61,53,100,2.96,overcast clouds,2022-09-14 01:12:05
376,Soyo,AO,-6.1349,12.3689,295.57,88,28,2.64,scattered clouds,2022-09-14 01:12:05
377,Tokonou,GN,9.65,-9.7833,293.36,97,100,1.19,overcast clouds,2022-09-14 01:12:06
378,Russell,US,32.3502,-85.1999,293.72,94,0,0.0,clear sky,2022-09-14 01:12:07
379,Kloulklubed,PW,7.0419,134.2556,302.4,65,12,4.7,few clouds,2022-09-14 01:12:07
380,Zaranj,AF,30.9667,61.8833,295.41,21,0,3.89,clear sky,2022-09-14 01:12:07
381,Tranas,SE,58.0372,14.9782,283.92,94,56,3.28,broken clouds,2022-09-14 01:12:08
382,Lahij,YE,13.1667,44.5833,302.57,49,100,5.78,overcast clouds,2022-09-14 01:12:08
383,Tarrafal,CV,15.2833,-23.7667,299.9,84,95,4.07,overcast clouds,2022-09-14 01:12:09
384,Umm Lajj,SA,25.0213,37.2685,302.35,54,6,4.81,clear sky,2022-09-14 01:12:09
385,Biltine,TD,14.5333,20.9167,300.22,68,100,2.81,overcast clouds,2022-09-14 01:12:10
386,Freeport,US,40.6576,-73.5832,298.72,52,0,7.2,clear sky,2022-09-14 01:09:16
387,Paredon,MX,16.0333,-93.8667,300.09,80,100,2.11,overcast clouds,2022-09-14 01:12:11
388,Harper,LR,4.375,-7.7169,297.38,87,100,4.12,light rain,2022-09-14 01:12:11
389,Shestakovo,RU,56.4915,103.96,279.44,75,8,0.82,clear sky,2022-09-14 01:12:12
390,Taoudenni,ML,22.6783,-3.9836,309.23,8,0,3.34,clear sky,2022-09-14 01:12:12
391,Yomou,GN,7.5603,-9.2653,294.06,100,100,0.89,light rain,2022-09-14 01:12:13
392,Abu Dhabi,AE,24.4667,54.3667,305.16,87,52,3.6,haze,2022-09-14 01:11:49
393,Bambous Virieux,MU,-20.3428,57.7575,293.83,94,75,1.54,light intensity shower rain,2022-09-14 01:12:14
394,Balaipungut,ID,1.05,101.2833,295.43,95,100,1.18,overcast clouds,2022-09-14 01:12:14
395,Villarrica,PY,-25.75,-56.4333,288.82,62,5,2.97,clear sky,2022-09-14 01:12:15
396,Puerto Madryn,AR,-42.7692,-65.0385,289.38,41,6,11.17,clear sky,2022-09-14 01:12:15
397,Omboue,GA,-1.5746,9.2618,296.62,85,100,2.93,overcast clouds,2022-09-14 01:12:16
398,Lasa,IT,46.6166,10.7002,288.91,87,100,1.57,overcast clouds,2022-09-14 01:12:16
399,Sao Joao Da Barra,BR,-21.6403,-41.0511,295.28,84,77,7.3,broken clouds,2022-09-14 01:12:02
400,Khilok,RU,51.3674,110.4676,281.72,74,100,1.57,moderate rain,2022-09-14 01:12:17
401,Peniche,PT,39.3558,-9.3811,293.21,95,88,6.38,overcast clouds,2022-09-14 01:12:17
402,Maningrida,AU,-12.0667,134.2667,304.8,46,8,5.13,clear sky,2022-09-14 01:12:18
403,Parnamirim,BR,-5.9156,-35.2628,296.34,90,21,3.11,few clouds,2022-09-14 01:12:18
404,Narsaq,GL,60.9167,-46.05,279.27,71,5,1.2,clear sky,2022-09-14 01:12:19
405,Sucre,BO,-19.0333,-65.2627,287.57,66,100,3.42,overcast clouds,2022-09-14 01:12:19
406,Candido Mendes,BR,-1.4467,-45.7167,297.09,91,2,1.74,clear sky,2022-09-14 01:12:20
407,Bolgatanga,GH,10.7856,-0.8514,296.13,88,29,0.89,scattered clouds,2022-09-14 01:12:20
408,Findlay,US,41.0442,-83.6499,291.51,77,75,3.6,broken clouds,2022-09-14 01:12:21
409,Kelebia,HU,46.1968,19.6166,288.2,59,49,3.53,scattered clouds,2022-09-14 01:12:22
410,Beloha,MG,-25.1667,45.05,292.08,64,100,5.58,overcast clouds,2022-09-14 01:12:22
411,Beringovskiy,RU,63.05,179.3167,279.8,83,100,2.34,overcast clouds,2022-09-14 01:12:23
412,Mawlaik,MM,23.6333,94.4167,297.67,96,100,0.13,overcast clouds,2022-09-14 01:12:24
413,Oropesa,PE,-13.5928,-71.7719,288.07,54,36,2.06,scattered clouds,2022-09-14 01:12:25
414,Bowen,AU,-20.0167,148.2333,297.25,52,0,7.35,clear sky,2022-09-14 01:12:25
415,Loukhi,RU,66.0764,33.0381,283.12,81,100,3.48,overcast clouds,2022-09-14 01:12:26
416,Ngorongoro,TZ,-3.2397,35.4875,282.91,84,97,3.04,overcast clouds,2022-09-14 01:12:26
417,Provideniya,RU,64.3833,-173.3,282.24,93,100,4.0,fog,2022-09-14 01:12:27
418,Cabra,ES,37.4725,-4.4421,292.33,82,100,0.89,overcast clouds,2022-09-14 01:12:27
419,Ambon,ID,-3.6954,128.1814,302.23,79,40,2.57,scattered clouds,2022-09-14 01:12:28
420,Sayhat,SA,26.4852,50.0405,301.26,59,0,3.96,clear sky,2022-09-14 01:12:28
421,Smithers,CA,54.7804,-127.1743,292.33,42,0,4.12,clear sky,2022-09-14 01:12:29
422,Awbari,LY,26.5921,12.7805,300.49,29,0,3.99,clear sky,2022-09-14 01:12:29
423,Butterworth,MY,5.3991,100.3638,300.37,83,40,4.12,scattered clouds,2022-09-14 01:12:30
424,Avera,US,33.194,-82.5271,293.88,46,4,2.18,clear sky,2022-09-14 01:12:31
425,Luba,GQ,3.4568,8.5547,298.09,88,100,1.27,light rain,2022-09-14 01:12:31
426,Bubaque,GW,11.2833,-15.8333,300.18,80,100,4.3,overcast clouds,2022-09-14 01:12:32
427,Sinazongwe,ZM,-17.2614,27.4618,294.98,53,0,1.72,clear sky,2022-09-14 01:12:32
428,Shebalino,RU,51.2917,85.6772,277.6,98,100,0.9,overcast clouds,2022-09-14 01:12:33
429,Smithfield,US,41.922,-71.5495,296.14,95,20,2.06,few clouds,2022-09-14 01:12:33
430,Tazovskiy,RU,67.4667,78.7,274.63,81,100,2.79,overcast clouds,2022-09-14 01:12:34
431,Mantua,IT,45.1667,10.7833,293.49,86,97,1.65,overcast clouds,2022-09-14 01:08:42
432,San Jose,US,37.3394,-121.895,297.33,52,20,8.23,few clouds,2022-09-14 01:09:19
433,Sinnamary,GF,5.3833,-52.95,299.64,83,4,4.42,clear sky,2022-09-14 01:12:34
434,Tuatapere,NZ,-46.1333,167.6833,282.39,69,97,2.05,overcast clouds,2022-09-14 01:12:35
435,Nuuk,GL,64.1835,-51.7216,279.49,93,40,8.23,scattered clouds,2022-09-14 01:09:24
436,Paamiut,GL,61.994,-49.6678,279.42,81,9,4.25,clear sky,2022-09-14 01:12:36
437,Tynne,UA,50.6015,26.1849,283.68,83,97,3.09,overcast clouds,2022-09-14 01:12:36
438,Srednekolymsk,RU,67.45,153.6833,279.9,60,20,1.9,few clouds,2022-09-14 01:12:37
439,Murray Bridge,AU,-35.1167,139.2667,287.11,65,100,9.85,moderate rain,2022-09-14 01:12:37
440,Ancud,CL,-41.8697,-73.8203,284.39,87,100,7.98,light rain,2022-09-14 01:12:37
441,Olkhovka,RU,53.2115,60.6069,280.22,74,100,2.31,overcast clouds,2022-09-14 01:12:38
442,Trinidad,BO,-14.8333,-64.9,296.79,85,99,2.4,overcast clouds,2022-09-14 01:12:38
443,Inhambane,MZ,-23.865,35.3833,293.31,67,67,5.54,broken clouds,2022-09-14 01:12:39
444,Longonjo,AO,-12.9067,15.2533,291.62,66,46,1.57,scattered clouds,2022-09-14 01:12:39
445,Ossora,RU,59.2353,163.0719,284.0,56,26,1.5,scattered clouds,2022-09-14 01:12:40
446,Plouzane,FR,48.3833,-4.6167,292.18,94,0,4.12,clear sky,2022-09-14 01:12:40
447,Portland,US,45.5234,-122.6762,295.79,58,100,3.09,overcast clouds,2022-09-14 01:08:42
448,Sayyan,YE,15.1718,44.3244,290.94,43,68,0.68,broken clouds,2022-09-14 01:12:41
449,Wladyslawowo,PL,54.7909,18.4009,286.45,84,18,8.33,few clouds,2022-09-14 01:12:42
450,Bermejo,AR,-32.8833,-68.8,288.1,26,0,3.6,clear sky,2022-09-14 01:12:42
451,Aripuana,BR,-9.1667,-60.6333,298.93,65,26,0.84,scattered clouds,2022-09-14 01:12:43
452,Aykhal,RU,66.0,111.5,275.77,69,88,7.91,overcast clouds,2022-09-14 01:12:43
453,Bartica,GY,6.4,-58.6167,299.33,93,52,1.38,broken clouds,2022-09-14 01:12:43
454,Cascais,PT,38.6979,-9.4215,293.67,67,96,12.96,light rain,2022-09-14 01:12:44
455,Oyon,PE,-10.6681,-76.7731,283.27,60,100,0.43,overcast clouds,2022-09-14 01:12:44
456,Sioux Lookout,CA,50.1001,-91.917,282.79,52,2,2.39,clear sky,2022-09-14 01:11:28
457,Zemio,CF,5.0314,25.1361,294.07,97,99,0.15,light rain,2022-09-14 01:12:45
458,Baraki Barak,AF,33.9675,68.9486,291.51,42,0,0.9,clear sky,2022-09-14 01:12:45
459,Kpalime,TG,6.9,0.6333,294.38,99,90,0.91,overcast clouds,2022-09-14 01:12:46
460,Teknaf,BD,20.8624,92.3058,298.97,87,100,1.61,overcast clouds,2022-09-14 01:12:46
461,San Vicente,AR,-26.6167,-54.1333,286.57,80,92,1.59,overcast clouds,2022-09-14 01:12:47
462,Divnomorskoye,RU,44.5011,38.1353,289.74,81,12,4.9,light rain,2022-09-14 01:12:47
463,Borogontsy,RU,62.6683,131.1683,282.03,90,97,4.02,light rain,2022-09-14 01:12:48
464,Lipari,IT,38.4674,14.954,295.0,52,0,1.46,clear sky,2022-09-14 01:12:48
465,General Roca,AR,-39.0333,-67.5833,288.5,31,0,3.09,clear sky,2022-09-14 01:12:48
466,Gilbues,BR,-9.8317,-45.3439,299.5,29,17,2.08,few clouds,2022-09-14 01:12:49
467,Thunder Bay,CA,48.4001,-89.3168,285.72,72,24,2.99,few clouds,2022-09-14 01:09:54
468,Toamasina,MG,-18.1667,49.3833,293.42,84,100,0.59,light rain,2022-09-14 01:12:50
469,Sakyla,FI,61.0333,22.3333,284.31,92,100,6.35,overcast clouds,2022-09-14 01:12:50
470,Souillac,MU,-20.5167,57.5167,292.36,94,75,1.54,light intensity shower rain,2022-09-14 01:12:51
471,Ilulissat,GL,69.2167,-51.1,282.16,71,100,4.12,overcast clouds,2022-09-14 01:12:51
472,Kavieng,PG,-2.5744,150.7967,302.61,66,86,6.93,overcast clouds,2022-09-14 01:12:52
473,Seymchan,RU,62.8833,152.4333,279.74,59,9,1.56,clear sky,2022-09-14 01:12:52
474,Yar-Sale,RU,66.8333,70.8333,279.55,96,100,3.45,overcast clouds,2022-09-14 01:12:52
475,Tanda,IN,26.55,82.65,297.58,97,100,5.37,overcast clouds,2022-09-14 01:08:36
476,San Gabriel Casa Blanca,MX,18.15,-97.1333,295.28,88,100,1.89,overcast clouds,2022-09-14 01:12:53
477,Bambanglipuro,ID,-7.95,110.2833,300.11,73,9,4.89,clear sky,2022-09-14 01:12:54
478,Ixtapa,MX,20.7,-105.2,300.72,83,75,2.06,broken clouds,2022-09-14 01:12:54
479,Jardim,BR,-21.4803,-56.1381,294.63,56,100,3.99,overcast clouds,2022-09-14 01:12:54
480,Hailar,CN,49.2,119.7,292.73,43,100,1.79,overcast clouds,2022-09-14 01:12:55
481,Buin,CL,-33.7333,-70.75,286.34,79,0,1.52,clear sky,2022-09-14 01:12:34
482,Salto De Pirapora,BR,-23.6489,-47.5733,291.87,88,45,2.88,scattered clouds,2022-09-14 01:12:55
483,Liseleje,DK,56.0053,11.9483,288.1,78,87,6.71,overcast clouds,2022-09-14 01:12:56
484,Sur,OM,22.5667,59.5289,302.23,61,70,2.29,broken clouds,2022-09-14 01:12:56
485,San Patricio,US,28.017,-97.5169,302.51,60,4,3.49,clear sky,2022-09-14 01:12:57
486,Torit,SS,4.4133,32.5678,292.35,95,100,1.23,overcast clouds,2022-09-14 01:12:57
487,Aiken,US,33.5835,-81.5998,296.31,77,0,0.0,clear sky,2022-09-14 01:12:11
488,Palu,ID,-0.8917,119.8707,302.23,66,45,0.1,scattered clouds,2022-09-14 01:12:58
489,Baruun-Urt,MN,46.6806,113.2792,292.16,44,100,3.36,overcast clouds,2022-09-14 01:12:58
490,Basseterre,KN,17.2948,-62.7261,301.36,89,5,7.41,clear sky,2022-09-14 01:12:59
491,Sibolga,ID,1.7427,98.7792,298.3,74,100,1.04,overcast clouds,2022-09-14 01:12:59
492,Makakilo City,US,21.3469,-158.0858,303.33,53,100,7.2,overcast clouds,2022-09-14 01:13:00
493,Pakhtakoron,TJ,40.1571,68.7466,287.81,37,0,2.2,clear sky,2022-09-14 01:13:00
494,Bud,US,39.447,-86.1758,292.77,90,80,0.28,broken clouds,2022-09-14 01:13:01
495,Los Llanos De Aridane,ES,28.6585,-17.9182,294.01,86,0,2.06,clear sky,2022-09-14 01:13:01
496,Arcata,US,40.8665,-124.0828,296.34,82,0,2.57,clear sky,2022-09-14 01:09:53
497,Mwene-Ditu,CD,-7.0,23.45,294.55,76,100,1.23,overcast clouds,2022-09-14 01:13:02
498,Punta,PH,8.9897,125.34,302.61,65,47,0.65,scattered clouds,2022-09-14 01:13:03
499,Khuzdar,PK,27.7384,66.6434,297.85,59,0,0.02,clear sky,2022-09-14 01:13:03
500,Najran,SA,17.4924,44.1277,298.52,19,71,0.92,broken clouds,2022-09-14 01:13:04
501,Mount Isa,AU,-20.7333,139.5,302.02,26,0,3.09,clear sky,2022-09-14 01:13:04
502,Lhokseumawe,ID,5.1801,97.1507,298.02,84,100,2.93,overcast clouds,2022-09-14 01:13:05
503,Pishin,PK,30.5803,66.9961,293.88,33,0,0.77,clear sky,2022-09-14 01:13:05
504,Darhan,MN,49.4867,105.9228,284.59,57,100,3.65,overcast clouds,2022-09-14 01:13:06
505,Hobyo,SO,5.3505,48.5268,297.79,87,95,9.9,overcast clouds,2022-09-14 01:13:06
506,Mayo,US,38.8876,-76.5119,296.53,86,0,0.0,clear sky,2022-09-14 01:13:07
507,Birao,CF,10.2849,22.7882,293.55,97,100,0.87,light rain,2022-09-14 01:13:08
508,Saint Anthony,US,45.0205,-93.218,295.27,62,0,2.06,clear sky,2022-09-14 01:13:08
509,San Felipe,VE,10.3399,-68.7425,295.11,97,100,0.2,overcast clouds,2022-09-14 01:13:09
510,Lata,PT,40.1629,-8.3327,291.52,95,100,3.01,overcast clouds,2022-09-14 01:13:10
511,Mountain Home,US,43.133,-115.6912,292.86,68,40,5.66,scattered clouds,2022-09-14 01:13:10
512,Acapulco,MX,16.8634,-99.8901,300.05,83,100,1.54,overcast clouds,2022-09-14 01:13:11
513,Dera Bugti,PK,29.0307,69.151,302.46,53,0,1.58,clear sky,2022-09-14 01:13:11
514,Kedrovyy,RU,56.1667,91.8167,274.38,71,12,1.29,few clouds,2022-09-14 01:13:11
515,Payo,ID,-3.7508,103.6372,297.3,91,98,0.11,overcast clouds,2022-09-14 01:13:12
516,Hongjiang,CN,27.11,109.9956,299.98,53,12,1.34,few clouds,2022-09-14 01:13:13
517,Salalah,OM,17.0151,54.0924,299.2,100,100,2.06,light intensity drizzle,2022-09-14 01:11:53
518,Anahuac,MX,27.2333,-100.15,304.77,37,11,4.01,few clouds,2022-09-14 01:13:13
519,Turukhansk,RU,65.8167,87.9833,274.97,91,100,0.14,overcast clouds,2022-09-14 01:13:14
520,Gorontalo,ID,0.5412,123.0595,301.45,65,94,1.61,overcast clouds,2022-09-14 01:13:14
521,Beitbridge,ZW,-22.2167,30.0,290.96,73,99,9.76,overcast clouds,2022-09-14 01:13:15
522,Arman,RU,59.7,150.1667,284.83,46,100,1.28,overcast clouds,2022-09-14 01:13:15
523,Karia,NG,11.7306,11.1629,296.25,82,100,3.14,overcast clouds,2022-09-14 01:13:16
524,Papar,MY,5.7333,115.9333,302.15,73,11,2.14,few clouds,2022-09-14 01:13:17
525,Touros,BR,-5.1989,-35.4608,297.39,85,25,5.49,scattered clouds,2022-09-14 01:13:17
526,Kahului,US,20.8947,-156.47,303.16,69,75,7.72,broken clouds,2022-09-14 01:08:23
527,Courtenay,CA,49.6866,-124.9936,295.92,66,20,0.0,smoke,2022-09-14 01:13:18
528,Agadir,MA,30.4202,-9.5982,294.4,88,7,0.14,clear sky,2022-09-14 01:13:18
529,Acari,PE,-15.4311,-74.6158,289.53,83,64,1.92,broken clouds,2022-09-14 01:13:19
530,Mumford,GH,5.2618,-0.759,296.46,93,67,4.0,broken clouds,2022-09-14 01:13:19
531,Kiruna,SE,67.8557,20.2251,278.66,100,100,3.6,light rain,2022-09-14 01:13:20
532,Berdigestyakh,RU,62.0989,126.6992,277.8,97,100,7.91,light rain,2022-09-14 01:13:20
533,Amot,NO,59.5714,7.9877,282.46,94,38,2.21,scattered clouds,2022-09-14 01:13:21
534,Lazaro Cardenas,MX,17.9583,-102.2,299.52,80,36,1.07,scattered clouds,2022-09-14 01:13:21
535,Egra,CZ,50.0796,12.3739,289.21,96,100,0.38,overcast clouds,2022-09-14 01:13:22
536,Dauphin,CA,51.1494,-100.0502,285.23,62,0,0.0,haze,2022-09-14 01:09:03
537,Dafeng,CN,23.4517,108.5881,299.21,77,83,1.02,broken clouds,2022-09-14 01:13:23
538,Arica,CL,-18.475,-70.3042,288.28,72,100,5.14,overcast clouds,2022-09-14 01:10:45
539,Vila Franca Do Campo,PT,37.7167,-25.4333,296.38,95,30,1.49,scattered clouds,2022-09-14 01:13:24
540,Taltal,CL,-25.4,-70.4833,287.77,57,0,2.61,clear sky,2022-09-14 01:13:24
541,Aitape,PG,-3.1374,142.3475,303.41,61,94,2.36,overcast clouds,2022-09-14 01:13:25
542,Sobolevo,RU,54.4299,31.8996,280.83,97,100,2.07,overcast clouds,2022-09-14 01:13:25
543,Umm Kaddadah,SD,13.6017,26.6876,301.48,58,80,4.68,broken clouds,2022-09-14 01:13:26
544,Kalmunai,LK,7.4167,81.8167,298.57,84,100,3.06,overcast clouds,2022-09-14 01:13:26
545,Adolfo Lopez Mateos,MX,28.4667,-107.3,289.78,68,85,0.64,overcast clouds,2022-09-14 01:13:27
546,Corrente,BR,-3.7367,-43.3394,297.83,76,38,2.0,scattered clouds,2022-09-14 01:13:27
547,Terney,RU,45.0503,136.6092,289.92,62,0,1.84,clear sky,2022-09-14 01:13:27
548,Xingyi,CN,24.1877,102.817,289.61,96,97,1.13,overcast clouds,2022-09-14 01:13:29
549,Chuguyevka,RU,44.1653,133.8633,289.89,57,98,0.58,overcast clouds,2022-09-14 01:13:29
550,Baykit,RU,61.67,96.37,278.9,92,100,2.13,overcast clouds,2022-09-14 01:13:29
551,Bilma,NE,18.6853,12.9164,307.35,18,99,1.07,overcast clouds,2022-09-14 01:13:30
552,Juneau,US,58.3019,-134.4197,285.49,95,100,4.63,light rain,2022-09-14 01:13:31
553,Buzmeyin,TM,38.0507,58.2056,292.96,18,0,2.73,clear sky,2022-09-14 01:13:31
554,Pemberton,CA,50.3164,-122.8027,294.98,61,39,1.92,scattered clouds,2022-09-14 01:13:32
555,Juegang,CN,32.3174,121.1855,296.47,96,100,9.45,overcast clouds,2022-09-14 01:13:32
556,Portree,GB,57.4129,-6.1942,284.0,97,100,2.21,overcast clouds,2022-09-14 01:13:33
557,Hervey Bay,AU,-25.2986,152.8535,293.47,62,52,4.51,broken clouds,2022-09-14 01:13:33
558,Caribou,US,46.8606,-68.012,292.87,88,100,2.57,overcast clouds,2022-09-14 01:13:34
559,Groningen,NL,53.25,6.75,286.5,90,75,1.54,broken clouds,2022-09-14 01:10:56
560,Mahibadhoo,MV,3.7833,72.9667,299.92,72,28,0.56,scattered clouds,2022-09-14 01:13:36
561,Biak,ID,-0.9131,122.8766,299.57,72,84,4.04,heavy intensity rain,2022-09-14 01:13:37
562,Shelburne,CA,44.0787,-80.2041,286.81,79,1,3.38,clear sky,2022-09-14 01:13:37
563,Iwanai,JP,42.9744,140.5089,290.17,67,100,3.48,overcast clouds,2022-09-14 01:13:38
564,Kigoma,TZ,-4.8769,29.6267,297.49,71,71,2.7,broken clouds,2022-09-14 01:13:38
565,Tiarei,PF,-17.5333,-149.3333,301.16,72,100,9.55,overcast clouds,2022-09-14 01:13:39
566,Xinpu,CN,34.5997,119.1594,294.9,91,100,5.05,light rain,2022-09-14 01:13:39
567,Kargasok,RU,59.0556,80.8572,276.21,91,28,2.5,scattered clouds,2022-09-14 01:13:40
568,Panguna,PG,-6.3164,155.4848,299.88,64,100,0.53,light rain,2022-09-14 01:13:40
569,Olga,RU,43.7444,135.2892,289.96,67,100,2.05,overcast clouds,2022-09-14 01:13:41
570,Olafsvik,IS,64.8945,-23.7142,281.05,77,42,5.01,scattered clouds,2022-09-14 01:13:41
571,Ulaanbaatar,MN,47.9077,106.8832,288.22,55,40,2.0,scattered clouds,2022-09-14 01:12:03
572,Saint-Joseph,RE,-21.3667,55.6167,291.36,75,100,0.67,overcast clouds,2022-09-14 01:13:42
573,Candido De Abreu,BR,-24.5669,-51.3333,291.05,99,100,0.92,overcast clouds,2022-09-14 01:13:42
574,Berga,NO,60.392,5.328,285.97,94,75,3.6,light rain,2022-09-14 01:13:43
575,Menongue,AO,-14.6585,17.691,290.57,23,86,2.16,overcast clouds,2022-09-14 01:13:43
576,Hualmay,PE,-11.0964,-77.6139,288.98,84,91,4.8,overcast clouds,2022-09-14 01:13:43
577,Luanda,AO,-8.8368,13.2343,295.15,88,20,1.03,few clouds,2022-09-14 01:13:44
578,Mayumba,GA,-3.432,10.6554,296.39,82,94,2.42,overcast clouds,2022-09-14 01:13:44
579,West Wendover,US,40.7391,-114.0733,291.71,72,100,4.63,overcast clouds,2022-09-14 01:13:45
580,Santa Cruz,BO,-17.8,-63.1667,290.85,63,40,4.63,moderate rain,2022-09-14 01:13:45
581,Poum,NC,-20.2333,164.0167,296.93,77,3,7.29,clear sky,2022-09-14 01:13:46
582,Rupert,US,42.6191,-113.6772,289.12,88,100,3.09,light rain,2022-09-14 01:13:46
583,Lulea,SE,65.5842,22.1547,285.19,87,100,3.6,overcast clouds,2022-09-14 01:13:47
584,East Stroudsburg,US,40.9995,-75.1813,292.99,84,48,2.78,scattered clouds,2022-09-14 01:13:47
585,Neiafu,TO,-18.65,-173.9833,301.53,78,20,4.63,few clouds,2022-09-14 01:13:48
586,Maraa,BR,-1.8333,-65.3667,297.64,84,9,1.44,clear sky,2022-09-14 01:13:48
587,Kaitong,CN,44.8135,123.15,290.96,46,97,1.88,overcast clouds,2022-09-14 01:13:49
588,Sotouboua,TG,8.5667,0.9833,294.29,98,87,0.92,overcast clouds,2022-09-14 01:13:49
589,Conceicao Do Araguaia,BR,-8.2578,-49.2647,304.37,31,99,2.11,overcast clouds,2022-09-14 01:13:50
590,Taree,AU,-31.9,152.4667,292.07,58,49,1.51,scattered clouds,2022-09-14 01:13:50
591,Vaxjo,SE,56.8777,14.8091,286.18,100,100,3.6,overcast clouds,2022-09-14 01:13:51
592,Praya,CV,14.9215,-23.5087,299.49,87,86,3.84,overcast clouds,2022-09-14 01:13:51
593,Nuristan,AF,35.3,70.8333,278.2,66,35,2.1,scattered clouds,2022-09-14 01:13:51
594,Santa Fe,AR,-31.6333,-60.7,288.16,63,29,2.47,light rain,2022-09-14 01:13:52
595,Stornoway,GB,58.2093,-6.3865,284.28,89,100,2.06,overcast clouds,2022-09-14 01:13:52
596,Andenes,NO,69.3143,16.1194,282.0,81,100,15.43,overcast clouds,2022-09-14 01:13:53
597,Kanlagay,PH,5.8757,121.2915,302.34,68,81,1.99,broken clouds,2022-09-14 01:13:53
598,Ouadda,CF,8.0777,22.4007,293.2,99,100,2.41,moderate rain,2022-09-14 01:13:54
599,Kibre Mengist,ET,5.8833,38.9833,287.52,93,100,0.87,overcast clouds,2022-09-14 01:13:54
600,Dongsheng,CN,39.8161,109.9776,289.65,59,0,5.38,clear sky,2022-09-14 01:13:55
601,Bose,IT,45.4612,8.0137,293.02,81,100,1.34,overcast clouds,2022-09-14 01:13:55
602,Lalsot,IN,26.5667,76.3333,297.86,87,82,5.28,broken clouds,2022-09-14 01:13:56
603,Tabora,TZ,-5.0167,32.8,293.57,52,90,4.24,overcast clouds,2022-09-14 01:13:56
604,Wukari,NG,7.85,9.7833,293.86,92,100,0.91,overcast clouds,2022-09-14 01:13:57
605,Atar,MR,20.5169,-13.0499,305.72,38,27,0.11,scattered clouds,2022-09-14 01:13:57
606,Kwekwe,ZW,-18.9281,29.8149,286.89,71,0,4.26,clear sky,2022-09-14 01:13:57
607,Sterling,US,39.0062,-77.4286,295.52,64,75,5.14,broken clouds,2022-09-14 01:13:08
608,Puerto Escondido,MX,15.85,-97.0667,296.61,60,100,3.09,overcast clouds,2022-09-14 01:13:58
609,Norilsk,RU,69.3535,88.2027,274.06,91,93,4.06,overcast clouds,2022-09-14 01:13:58
610,Nantong,CN,32.0303,120.8747,297.58,99,100,0.45,overcast clouds,2022-09-14 01:13:59
611,Polessk,RU,54.862,21.1028,285.18,91,5,4.67,clear sky,2022-09-14 01:13:59
612,Marawi,PH,7.9986,124.2928,299.67,66,51,1.95,broken clouds,2022-09-14 01:14:00
613,Aswan,EG,24.0934,32.907,302.67,29,5,3.54,clear sky,2022-09-14 01:14:00
614,Mpika,ZM,-11.8343,31.4529,288.66,54,67,4.34,broken clouds,2022-09-14 01:14:01
615,Whitehorse,CA,60.7161,-135.0538,287.58,51,75,10.29,broken clouds,2022-09-14 01:12:35
616,Were Ilu,ET,10.6,39.4333,283.5,84,96,2.4,overcast clouds,2022-09-14 01:14:01
617,Constitucion,CL,-35.3333,-72.4167,282.21,87,0,2.1,clear sky,2022-09-14 01:14:02
618,Rundu,NA,-17.9333,19.7667,291.69,20,0,3.13,clear sky,2022-09-14 01:14:02
619,Lebanon,US,36.2081,-86.2911,295.27,79,0,0.0,clear sky,2022-09-14 01:12:53
620,Mabaruma,GY,8.2,-59.7833,296.6,95,30,1.43,scattered clouds,2022-09-14 01:14:03
621,Yumen,CN,40.2833,97.2,292.62,24,0,3.36,clear sky,2022-09-14 01:14:04
622,Shwebo,MM,22.5667,95.7,298.52,90,81,3.64,broken clouds,2022-09-14 01:14:04
623,Panaba,MX,21.2833,-88.2667,299.3,83,98,6.22,overcast clouds,2022-09-14 01:14:05
624,Oussouye,SN,12.485,-16.5469,299.15,85,100,1.89,overcast clouds,2022-09-14 01:14:05
625,Batagay,RU,67.6333,134.6333,279.91,65,100,0.69,overcast clouds,2022-09-14 01:14:06
626,Tashtagol,RU,52.7657,87.8894,280.24,95,94,0.59,overcast clouds,2022-09-14 01:14:07
627,Kailua,US,21.4022,-157.7394,304.14,67,100,4.12,overcast clouds,2022-09-14 01:14:07
628,Santa Marta,CO,11.2408,-74.199,301.98,73,96,0.89,overcast clouds,2022-09-14 01:14:08
629,Fort Smith,US,35.3859,-94.3986,299.17,44,0,2.57,clear sky,2022-09-14 01:11:01
630,Gravelbourg,CA,49.8834,-106.5512,288.3,23,100,6.63,overcast clouds,2022-09-14 01:14:08
631,Chazuta,PE,-6.5742,-76.1367,301.62,63,48,0.41,scattered clouds,2022-09-14 01:14:09
632,Sebinkarahisar,TR,40.2883,38.4236,283.28,82,13,1.2,few clouds,2022-09-14 01:09:15
633,Napanee,CA,44.2501,-76.9494,292.54,70,43,4.0,scattered clouds,2022-09-14 01:10:28
634,Quatre Cocos,MU,-20.2078,57.7625,293.76,77,98,3.44,overcast clouds,2022-09-14 01:14:10
635,Morgan City,US,29.6994,-91.2068,298.15,73,5,2.97,clear sky,2022-09-14 01:11:25
636,Mchinji,MW,-13.7984,32.8802,289.75,54,55,2.75,broken clouds,2022-09-14 01:14:11
637,Hatillo,PR,18.4863,-66.8254,300.99,91,100,0.89,overcast clouds,2022-09-14 01:14:11
638,Tomatlan,MX,19.9333,-105.25,297.91,93,100,0.24,overcast clouds,2022-09-14 01:14:13
639,Hamilton,US,39.1834,-84.5333,292.91,79,75,3.09,broken clouds,2022-09-14 01:14:13
640,Tabory,RU,58.5198,64.5495,278.04,96,91,2.11,overcast clouds,2022-09-14 01:14:14
641,Zhigansk,RU,66.7697,123.3711,277.3,78,100,7.32,overcast clouds,2022-09-14 01:14:14
642,North Bend,US,43.4065,-124.2243,294.22,89,0,3.09,mist,2022-09-14 01:13:26
643,San Miguel,SV,13.4833,-88.1833,297.15,97,100,1.23,light rain,2022-09-14 01:14:15
644,Esmeraldas,BR,-19.7625,-44.3139,296.63,34,31,3.18,scattered clouds,2022-09-14 01:14:15
645,Willowmore,ZA,-33.2926,23.4895,282.85,83,0,3.4,clear sky,2022-09-14 01:14:16
646,Digras,IN,20.1167,77.7167,296.22,95,100,3.34,overcast clouds,2022-09-14 01:14:16
647,Mogadishu,SO,2.0371,45.3438,297.65,87,100,7.18,overcast clouds,2022-09-14 01:09:57
648,Nichinan,JP,31.6,131.3667,302.97,85,48,6.37,scattered clouds,2022-09-14 01:14:17
649,Key West,US,24.5557,-81.7826,302.15,89,0,6.69,clear sky,2022-09-14 01:12:10
650,Kotka,FI,60.4664,26.9458,284.74,77,100,10.57,overcast clouds,2022-09-14 01:14:18
651,Sao Felix Do Xingu,BR,-6.6447,-51.995,300.13,48,75,0.33,broken clouds,2022-09-14 01:14:18
652,Sorland,NO,67.667,12.6934,284.07,80,100,10.2,light rain,2022-09-14 01:14:19
653,Bourail,NC,-21.5667,165.4833,297.26,69,57,3.47,broken clouds,2022-09-14 01:14:19
654,Olinda,BR,-8.0089,-34.8553,298.0,78,20,3.6,few clouds,2022-09-14 01:14:20
655,Sergiyevsk,RU,53.9413,51.165,286.23,53,100,2.45,light rain,2022-09-14 01:14:20
656,Motril,ES,36.7507,-3.5179,297.75,68,100,2.25,overcast clouds,2022-09-14 01:14:21
657,Yenagoa,NG,4.9247,6.2642,296.44,96,97,0.91,overcast clouds,2022-09-14 01:14:21
658,Salmo,CA,49.1999,-117.2689,296.53,64,44,1.11,scattered clouds,2022-09-14 01:14:22
659,Gondanglegi,ID,-7.7479,112.0132,300.9,64,3,6.92,clear sky,2022-09-14 01:14:22
660,Lepaera,HN,14.7833,-88.5833,291.05,96,100,0.41,overcast clouds,2022-09-14 01:14:23
661,Marienburg,PL,54.0359,19.0266,286.42,90,3,4.09,clear sky,2022-09-14 01:14:23
662,Saint-Georges,GD,12.0564,-61.7485,300.97,83,20,3.09,few clouds,2022-09-14 01:14:24
663,Terrace,CA,54.5163,-128.6035,293.93,57,5,0.54,clear sky,2022-09-14 01:11:53
664,Mandiana,GN,10.6333,-8.6833,294.47,96,52,1.82,broken clouds,2022-09-14 01:14:25
665,Qui Nhon,VN,13.7667,109.2333,300.65,80,100,1.79,overcast clouds,2022-09-14 01:14:25
666,Okhotsk,RU,59.3833,143.3,284.56,60,100,6.94,overcast clouds,2022-09-14 01:14:25
667,Zaykovo,RU,57.5613,62.7568,278.2,86,16,1.64,few clouds,2022-09-14 01:14:26
668,Mapimi,MX,25.8167,-103.85,299.22,36,37,3.0,scattered clouds,2022-09-14 01:14:27
669,Codrington,AU,-38.2667,141.9667,287.37,62,10,6.8,clear sky,2022-09-14 01:14:27
670,Deputatskiy,RU,69.3,139.9,276.01,64,100,1.72,overcast clouds,2022-09-14 01:14:28
671,Venustiano Carranza,MX,19.43,-99.0992,293.23,52,75,10.29,broken clouds,2022-09-14 01:14:28
672,Parrita,CR,9.5201,-84.3225,298.02,88,100,1.18,overcast clouds,2022-09-14 01:14:29
673,Aksarka,RU,66.5606,67.7975,279.13,90,100,3.4,overcast clouds,2022-09-14 01:12:36
674,Buenaventura,CO,3.8801,-77.0312,297.1,94,96,0.62,overcast clouds,2022-09-14 01:14:29
675,Pervomayskiy,RU,53.2485,40.2871,283.85,93,100,3.88,overcast clouds,2022-09-14 01:14:30
676,Karasjok,NO,69.4719,25.5112,277.53,89,100,4.47,light rain,2022-09-14 01:14:30
